{
  "type": "FeatureCollection",
  "features": [
    {
      "type": "Feature",
      "geometry": {
        "type": "Point",
        "coordinates": [
          74.856,
          12.9141
        ]
      },
      "properties": {
        "id": "addoor",
        "name": "Addoor",
        "routes": [
          "12A",
          "12B"
        ]
      }
    },
    {
      "type": "Feature",
      "geometry": {
        "type": "Point",
        "coordinates": [
          74.8946,
          12.954
        ]
      },
      "properties": {
        "id": "adyapadi",
        "name": "Adyapadi",
        "routes": [
          "47D"
        ]
      }
    },
    {
      "type": "Feature",
      "geometry": {
        "type": "Point",
        "coordinates": [
          74.9263,
          12.8679
        ]
      },
      "properties": {
        "id": "adyar",
        "name": "Adyar",
        "routes": [
          "10A",
          "10B",
          "30B"
        ]
      }
    },
    {
      "type": "Feature",
      "geometry": {
        "type": "Point",
        "coordinates": [
          74.9187,
          12.8635
        ]
      },
      "properties": {
        "id": "adyar-launch-jetty",
        "name": "Adyar Launch Jetty",
        "routes": [
          "30B"
        ]
      }
    },
    {
      "type": "Feature",
      "geometry": {
        "type": "Point",
        "coordinates": [
          74.9245,
          12.8794
        ]
      },
      "properties": {
        "id": "adyar-padav",
        "name": "Adyar Padav",
        "routes": [
          "4E"
        ]
      }
    },
    {
      "type": "Feature",
      "geometry": {
        "type": "Point",
        "coordinates": [
          74.8494,
          12.9149
        ]
      },
      "properties": {
        "id": "akashabhavan",
        "name": "Akashabhavan",
        "routes": [
          "33",
          "60B"
        ]
      }
    },
    {
      "type": "Feature",
      "geometry": {
        "type": "Point",
        "coordinates": [
          74.8542,
          12.8894
        ]
      },
      "properties": {
        "id": "akashavani",
        "name": "Akashavani",
        "routes": [
          "14A",
          "14B",
          "14C",
          "15",
          "15A",
          "15B"
        ]
      }
    },
    {
      "type": "Feature",
      "geometry": {
        "type": "Point",
        "coordinates": [
          74.8433,
          12.8693
        ]
      },
      "properties": {
        "id": "alake",
        "name": "Alake",
        "routes": [
          "7",
          "16A"
        ]
      }
    },
    {
      "type": "Feature",
      "geometry": {
        "type": "Point",
        "coordinates": [
          74.8807,
          12.8709
        ]
      },
      "properties": {
        "id": "alape",
        "name": "Alape",
        "routes": [
          "23B"
        ]
      }
    },
    {
      "type": "Feature",
      "geometry": {
        "type": "Point",
        "coordinates": [
          74.9066,
          12.9215
        ]
      },
      "properties": {
        "id": "amrithnagar",
        "name": "Amrithnagar",
        "routes": [
          "44",
          "44E",
          "44I"
        ]
      }
    },
    {
      "type": "Feature",
      "geometry": {
        "type": "Point",
        "coordinates": [
          74.8633,
          12.883
        ]
      },
      "properties": {
        "id": "anandanagar",
        "name": "Anandanagar",
        "routes": [
          "60"
        ]
      }
    },
    {
      "type": "Feature",
      "geometry": {
        "type": "Point",
        "coordinates": [
          74.948,
          12.8733
        ]
      },
      "properties": {
        "id": "arkula-padav",
        "name": "Arkula Padav",
        "routes": [
          "21A"
        ]
      }
    },
    {
      "type": "Feature",
      "geometry": {
        "type": "Point",
        "coordinates": [
          74.8295,
          12.8982
        ]
      },
      "properties": {
        "id": "ashoknagar",
        "name": "Ashoknagar",
        "routes": [
          "2",
          "2A",
          "2C",
          "2D",
          "2E",
          "2F",
          "31A",
          "31 B",
          "31C"
        ]
      }
    },
    {
      "type": "Feature",
      "geometry": {
        "type": "Point",
        "coordinates": [
          74.9141,
          12.8082
        ]
      },
      "properties": {
        "id": "assaigoli",
        "name": "Assaigoli",
        "routes": [
          "44K"
        ]
      }
    },
    {
      "type": "Feature",
      "geometry": {
        "type": "Point",
        "coordinates": [
          74.8374,
          12.863
        ]
      },
      "properties": {
        "id": "attavar",
        "name": "Attavar",
        "routes": [
          "14C",
          "27",
          "27A"
        ]
      }
    },
    {
      "type": "Feature",
      "geometry": {
        "type": "Point",
        "coordinates": [
          74.8433,
          12.8693
        ]
      },
      "properties": {
        "id": "azizzudin-road",
        "name": "Azizzudin Road",
        "routes": [
          "16"
        ]
      }
    },
    {
      "type": "Feature",
      "geometry": {
        "type": "Point",
        "coordinates": [
          74.8084,
          12.9565
        ]
      },
      "properties": {
        "id": "baikampady",
        "name": "Baikampady",
        "routes": [
          "2",
          "2A",
          "2C",
          "2D",
          "2E",
          "2F",
          "2G",
          "13G",
          "13J",
          "13K",
          "15",
          "15A",
          "15B",
          "15P",
          "41A",
          "51G",
          "59"
        ]
      }
    },
    {
      "type": "Feature",
      "geometry": {
        "type": "Point",
        "coordinates": [
          74.8084,
          12.9565
        ]
      },
      "properties": {
        "id": "baikampady-industrial-estate",
        "name": "Baikampady Industrial Estate",
        "routes": [
          "2C",
          "2D",
          "2E",
          "2F"
        ]
      }
    },
    {
      "type": "Feature",
      "geometry": {
        "type": "Point",
        "coordinates": [
          74.8799,
          12.8571
        ]
      },
      "properties": {
        "id": "bajal",
        "name": "Bajal",
        "routes": [
          "9",
          "9A",
          "9B",
          "11C"
        ]
      }
    },
    {
      "type": "Feature",
      "geometry": {
        "type": "Point",
        "coordinates": [
          74.8799,
          12.8571
        ]
      },
      "properties": {
        "id": "bajal-church",
        "name": "Bajal Church",
        "routes": [
          "9"
        ]
      }
    },
    {
      "type": "Feature",
      "geometry": {
        "type": "Point",
        "coordinates": [
          74.8799,
          12.8571
        ]
      },
      "properties": {
        "id": "bajal-pakkaladka",
        "name": "Bajal Pakkaladka",
        "routes": [
          "9A",
          "9B"
        ]
      }
    },
    {
      "type": "Feature",
      "geometry": {
        "type": "Point",
        "coordinates": [
          74.8845,
          12.981
        ]
      },
      "properties": {
        "id": "bajpe",
        "name": "Bajpe",
        "routes": [
          "2B",
          "2E",
          "2F",
          "2G",
          "22",
          "22A",
          "47",
          "47A",
          "47B",
          "47C",
          "47D",
          "47F"
        ]
      }
    },
    {
      "type": "Feature",
      "geometry": {
        "type": "Point",
        "coordinates": [
          74.872,
          12.9536
        ]
      },
      "properties": {
        "id": "bajpe-aerodrome",
        "name": "Bajpe Aerodrome",
        "routes": [
          "22A",
          "47B",
          "47C"
        ]
      }
    },
    {
      "type": "Feature",
      "geometry": {
        "type": "Point",
        "coordinates": [
          74.856,
          12.9141
        ]
      },
      "properties": {
        "id": "bala",
        "name": "Bala",
        "routes": [
          "53C"
        ]
      }
    },
    {
      "type": "Feature",
      "geometry": {
        "type": "Point",
        "coordinates": [
          74.856,
          12.9141
        ]
      },
      "properties": {
        "id": "balebail",
        "name": "Balebail",
        "routes": [
          "17",
          "17A",
          "17B",
          "33",
          "47",
          "47A",
          "47B",
          "47C"
        ]
      }
    },
    {
      "type": "Feature",
      "geometry": {
        "type": "Point",
        "coordinates": [
          74.8395,
          12.8828
        ]
      },
      "properties": {
        "id": "ballalbagh",
        "name": "Ballalbagh",
        "routes": [
          "17",
          "17A",
          "17B",
          "19",
          "31",
          "31A",
          "33",
          "41A",
          "45",
          "45A",
          "45B",
          "45C",
          "45D",
          "45E",
          "45F",
          "45G",
          "45H",
          "47",
          "47A",
          "47B",
          "47C",
          "53",
          "59"
        ]
      }
    },
    {
      "type": "Feature",
      "geometry": {
        "type": "Point",
        "coordinates": [
          74.8485,
          12.8725
        ]
      },
      "properties": {
        "id": "balmatta",
        "name": "Balmatta",
        "routes": [
          "9",
          "10A",
          "10B",
          "23",
          "30",
          "30B",
          "37",
          "42",
          "43B",
          "44A",
          "44B",
          "44C",
          "44D",
          "51",
          "51A",
          "54",
          "54A",
          "55"
        ]
      }
    },
    {
      "type": "Feature",
      "geometry": {
        "type": "Point",
        "coordinates": [
          74.8848,
          12.9956
        ]
      },
      "properties": {
        "id": "batrakere",
        "name": "Batrakere",
        "routes": [
          "47D"
        ]
      }
    },
    {
      "type": "Feature",
      "geometry": {
        "type": "Point",
        "coordinates": [
          74.856,
          12.9141
        ]
      },
      "properties": {
        "id": "beeri",
        "name": "Beeri",
        "routes": [
          "42",
          "43B",
          "54"
        ]
      }
    },
    {
      "type": "Feature",
      "geometry": {
        "type": "Point",
        "coordinates": [
          74.856,
          12.9141
        ]
      },
      "properties": {
        "id": "beggari-colony",
        "name": "Beggari Colony",
        "routes": [
          "13D"
        ]
      }
    },
    {
      "type": "Feature",
      "geometry": {
        "type": "Point",
        "coordinates": [
          74.8417,
          12.894
        ]
      },
      "properties": {
        "id": "bejai",
        "name": "Bejai",
        "routes": [
          "3F",
          "11D",
          "15",
          "15A",
          "15B",
          "15C",
          "15D",
          "15H",
          "15J",
          "16C",
          "19",
          "60",
          "61"
        ]
      }
    },
    {
      "type": "Feature",
      "geometry": {
        "type": "Point",
        "coordinates": [
          74.8402,
          12.8857
        ]
      },
      "properties": {
        "id": "bejai-church",
        "name": "Bejai Church",
        "routes": [
          "13H"
        ]
      }
    },
    {
      "type": "Feature",
      "geometry": {
        "type": "Point",
        "coordinates": [
          74.8569,
          12.8703
        ]
      },
      "properties": {
        "id": "bendoor",
        "name": "Bendoor",
        "routes": [
          "14"
        ]
      }
    },
    {
      "type": "Feature",
      "geometry": {
        "type": "Point",
        "coordinates": [
          74.8569,
          12.8703
        ]
      },
      "properties": {
        "id": "bendoorwell",
        "name": "Bendoorwell",
        "routes": [
          "3A",
          "4",
          "4A",
          "4B",
          "4C",
          "5",
          "6A",
          "6B",
          "13E",
          "14A",
          "14B"
        ]
      }
    },
    {
      "type": "Feature",
      "geometry": {
        "type": "Point",
        "coordinates": [
          74.8569,
          12.8703
        ]
      },
      "properties": {
        "id": "bendore",
        "name": "Bendore",
        "routes": [
          "15P"
        ]
      }
    },
    {
      "type": "Feature",
      "geometry": {
        "type": "Point",
        "coordinates": [
          74.8225,
          12.8663
        ]
      },
      "properties": {
        "id": "bengare",
        "name": "Bengare",
        "routes": [
          "2B"
        ]
      }
    },
    {
      "type": "Feature",
      "geometry": {
        "type": "Point",
        "coordinates": [
          74.8414,
          12.887
        ]
      },
      "properties": {
        "id": "bharat-mall",
        "name": "Bharat Mall",
        "routes": [
          "15",
          "15A",
          "15B",
          "17",
          "17A",
          "17B",
          "19",
          "33",
          "47",
          "47A",
          "47B",
          "47C"
        ]
      }
    },
    {
      "type": "Feature",
      "geometry": {
        "type": "Point",
        "coordinates": [
          74.8848,
          12.9956
        ]
      },
      "properties": {
        "id": "bhatrakere",
        "name": "Bhatrakere",
        "routes": [
          "47C"
        ]
      }
    },
    {
      "type": "Feature",
      "geometry": {
        "type": "Point",
        "coordinates": [
          74.856,
          12.9141
        ]
      },
      "properties": {
        "id": "bikkarnakatta",
        "name": "Bikkarnakatta",
        "routes": [
          "3A",
          "3B",
          "4",
          "6A",
          "6B",
          "6C",
          "12A",
          "12B",
          "21",
          "22",
          "22A",
          "30",
          "30B",
          "37"
        ]
      }
    },
    {
      "type": "Feature",
      "geometry": {
        "type": "Point",
        "coordinates": [
          74.8288,
          12.8792
        ]
      },
      "properties": {
        "id": "bokkapatna",
        "name": "Bokkapatna",
        "routes": [
          "16",
          "16A"
        ]
      }
    },
    {
      "type": "Feature",
      "geometry": {
        "type": "Point",
        "coordinates": [
          74.8421,
          12.8466
        ]
      },
      "properties": {
        "id": "bolar",
        "name": "Bolar",
        "routes": [
          "18",
          "29"
        ]
      }
    },
    {
      "type": "Feature",
      "geometry": {
        "type": "Point",
        "coordinates": [
          74.8421,
          12.8466
        ]
      },
      "properties": {
        "id": "boloor",
        "name": "Boloor",
        "routes": [
          "16",
          "16A"
        ]
      }
    },
    {
      "type": "Feature",
      "geometry": {
        "type": "Point",
        "coordinates": [
          74.8688,
          12.9175
        ]
      },
      "properties": {
        "id": "bondel",
        "name": "Bondel",
        "routes": [
          "3E",
          "13C",
          "13D",
          "13E",
          "13H",
          "14",
          "14A",
          "14B",
          "14C",
          "14D",
          "19",
          "19A",
          "62A"
        ]
      }
    },
    {
      "type": "Feature",
      "geometry": {
        "type": "Point",
        "coordinates": [
          74.8487,
          12.8747
        ]
      },
      "properties": {
        "id": "bunts-hostel",
        "name": "Bunts Hostel",
        "routes": [
          "3D",
          "6C",
          "12A",
          "12B",
          "17",
          "17A",
          "17B",
          "21",
          "21A",
          "22",
          "22A",
          "33",
          "44I",
          "47",
          "47A",
          "47B",
          "47C"
        ]
      }
    },
    {
      "type": "Feature",
      "geometry": {
        "type": "Point",
        "coordinates": [
          74.8631,
          12.9242
        ]
      },
      "properties": {
        "id": "c-f--colony",
        "name": "C.F. Colony",
        "routes": [
          "53B"
        ]
      }
    },
    {
      "type": "Feature",
      "geometry": {
        "type": "Point",
        "coordinates": [
          74.8424,
          12.8792
        ]
      },
      "properties": {
        "id": "canara-college",
        "name": "Canara College",
        "routes": [
          "31",
          "31A"
        ]
      }
    },
    {
      "type": "Feature",
      "geometry": {
        "type": "Point",
        "coordinates": [
          74.8647,
          12.8695
        ]
      },
      "properties": {
        "id": "capitanio",
        "name": "Capitanio",
        "routes": [
          "23C"
        ]
      }
    },
    {
      "type": "Feature",
      "geometry": {
        "type": "Point",
        "coordinates": [
          74.8374,
          12.863
        ]
      },
      "properties": {
        "id": "car-street",
        "name": "Car Street",
        "routes": [
          "1",
          "1B",
          "7",
          "13",
          "13A",
          "16A",
          "31 B"
        ]
      }
    },
    {
      "type": "Feature",
      "geometry": {
        "type": "Point",
        "coordinates": [
          74.9327,
          12.8824
        ]
      },
      "properties": {
        "id": "chelairpadavu",
        "name": "Chelairpadavu",
        "routes": [
          "3H",
          "13G",
          "15B",
          "15N",
          "41A"
        ]
      }
    },
    {
      "type": "Feature",
      "geometry": {
        "type": "Point",
        "coordinates": [
          74.8361,
          12.8943
        ]
      },
      "properties": {
        "id": "chilimbi",
        "name": "Chilimbi",
        "routes": [
          "1",
          "1B",
          "7",
          "13",
          "13A",
          "45",
          "45A",
          "45B",
          "45C",
          "45D",
          "45E",
          "45F",
          "45G",
          "45H",
          "53"
        ]
      }
    },
    {
      "type": "Feature",
      "geometry": {
        "type": "Point",
        "coordinates": [
          74.8418,
          12.8858
        ]
      },
      "properties": {
        "id": "chitrapur",
        "name": "Chitrapur",
        "routes": [
          "59"
        ]
      }
    },
    {
      "type": "Feature",
      "geometry": {
        "type": "Point",
        "coordinates": [
          74.8095,
          12.9952
        ]
      },
      "properties": {
        "id": "chokkabettu",
        "name": "Chokkabettu",
        "routes": [
          "45A",
          "45B",
          "53A"
        ]
      }
    },
    {
      "type": "Feature",
      "geometry": {
        "type": "Point",
        "coordinates": [
          74.8362,
          12.9116
        ]
      },
      "properties": {
        "id": "chowki",
        "name": "Chowki",
        "routes": [
          "4E"
        ]
      }
    },
    {
      "type": "Feature",
      "geometry": {
        "type": "Point",
        "coordinates": [
          74.8233,
          12.9027
        ]
      },
      "properties": {
        "id": "dambel",
        "name": "Dambel",
        "routes": [
          "15K",
          "31C"
        ]
      }
    },
    {
      "type": "Feature",
      "geometry": {
        "type": "Point",
        "coordinates": [
          74.856,
          12.9141
        ]
      },
      "properties": {
        "id": "delanthabettu",
        "name": "Delanthabettu",
        "routes": [
          "53C"
        ]
      }
    },
    {
      "type": "Feature",
      "geometry": {
        "type": "Point",
        "coordinates": [
          74.8947,
          12.8085
        ]
      },
      "properties": {
        "id": "deralakatte",
        "name": "Deralakatte",
        "routes": [
          "44G",
          "44K",
          "44M",
          "51",
          "51A",
          "51B",
          "51T",
          "54A",
          "55"
        ]
      }
    },
    {
      "type": "Feature",
      "geometry": {
        "type": "Point",
        "coordinates": [
          74.8494,
          12.9149
        ]
      },
      "properties": {
        "id": "derebail",
        "name": "Derebail",
        "routes": [
          "33"
        ]
      }
    },
    {
      "type": "Feature",
      "geometry": {
        "type": "Point",
        "coordinates": [
          74.8856,
          12.7723
        ]
      },
      "properties": {
        "id": "devinagara",
        "name": "Devinagara",
        "routes": [
          "13L"
        ]
      }
    },
    {
      "type": "Feature",
      "geometry": {
        "type": "Point",
        "coordinates": [
          74.856,
          12.9141
        ]
      },
      "properties": {
        "id": "dharmanagar",
        "name": "Dharmanagar",
        "routes": [
          "51G"
        ]
      }
    },
    {
      "type": "Feature",
      "geometry": {
        "type": "Point",
        "coordinates": [
          74.8233,
          12.9027
        ]
      },
      "properties": {
        "id": "dombel",
        "name": "Dombel",
        "routes": [
          "31 B"
        ]
      }
    },
    {
      "type": "Feature",
      "geometry": {
        "type": "Point",
        "coordinates": [
          74.8607,
          12.8746
        ]
      },
      "properties": {
        "id": "esi",
        "name": "ESI",
        "routes": [
          "4B"
        ]
      }
    },
    {
      "type": "Feature",
      "geometry": {
        "type": "Point",
        "coordinates": [
          74.8677,
          12.8566
        ]
      },
      "properties": {
        "id": "ekkur",
        "name": "Ekkur",
        "routes": [
          "9A",
          "9B"
        ]
      }
    },
    {
      "type": "Feature",
      "geometry": {
        "type": "Point",
        "coordinates": [
          74.908,
          12.8367
        ]
      },
      "properties": {
        "id": "eliyar-padavu",
        "name": "Eliyar Padavu",
        "routes": [
          "44B",
          "44M",
          "44N"
        ]
      }
    },
    {
      "type": "Feature",
      "geometry": {
        "type": "Point",
        "coordinates": [
          74.8404,
          12.8802
        ]
      },
      "properties": {
        "id": "empire-mall",
        "name": "Empire Mall",
        "routes": [
          "17",
          "17A",
          "17B",
          "19",
          "31",
          "31A",
          "33",
          "41A",
          "45",
          "45A",
          "45B",
          "45C",
          "45D",
          "45E",
          "45F",
          "45G",
          "45H",
          "47",
          "47A",
          "47B",
          "47C",
          "53",
          "59"
        ]
      }
    },
    {
      "type": "Feature",
      "geometry": {
        "type": "Point",
        "coordinates": [
          74.8763,
          12.9062
        ]
      },
      "properties": {
        "id": "faizalnagar",
        "name": "Faizalnagar",
        "routes": [
          "23",
          "23B",
          "23C"
        ]
      }
    },
    {
      "type": "Feature",
      "geometry": {
        "type": "Point",
        "coordinates": [
          74.933,
          12.8316
        ]
      },
      "properties": {
        "id": "fajir",
        "name": "Fajir",
        "routes": [
          "55"
        ]
      }
    },
    {
      "type": "Feature",
      "geometry": {
        "type": "Point",
        "coordinates": [
          74.8418,
          12.8858
        ]
      },
      "properties": {
        "id": "falnir",
        "name": "Falnir",
        "routes": [
          "4",
          "4A",
          "4B",
          "4C",
          "6B",
          "11A",
          "11B",
          "14",
          "14B",
          "23C"
        ]
      }
    },
    {
      "type": "Feature",
      "geometry": {
        "type": "Point",
        "coordinates": [
          74.8351,
          12.9936
        ]
      },
      "properties": {
        "id": "ganeshapura",
        "name": "Ganeshapura",
        "routes": [
          "15E",
          "65E"
        ]
      }
    },
    {
      "type": "Feature",
      "geometry": {
        "type": "Point",
        "coordinates": [
          74.8856,
          12.8714
        ]
      },
      "properties": {
        "id": "garodi",
        "name": "Garodi",
        "routes": [
          "11A",
          "11B",
          "11C",
          "23"
        ]
      }
    },
    {
      "type": "Feature",
      "geometry": {
        "type": "Point",
        "coordinates": [
          74.8317,
          12.8762
        ]
      },
      "properties": {
        "id": "gokarnath-temple",
        "name": "Gokarnath Temple",
        "routes": [
          "16"
        ]
      }
    },
    {
      "type": "Feature",
      "geometry": {
        "type": "Point",
        "coordinates": [
          74.8668,
          12.8607
        ]
      },
      "properties": {
        "id": "gorigudde",
        "name": "Gorigudde",
        "routes": [
          "51K",
          "60"
        ]
      }
    },
    {
      "type": "Feature",
      "geometry": {
        "type": "Point",
        "coordinates": [
          74.8418,
          12.8858
        ]
      },
      "properties": {
        "id": "govt--quarters",
        "name": "Govt. Quarters",
        "routes": [
          "13C",
          "13D",
          "13E"
        ]
      }
    },
    {
      "type": "Feature",
      "geometry": {
        "type": "Point",
        "coordinates": [
          74.8418,
          12.8858
        ]
      },
      "properties": {
        "id": "govt--womens-polytechnic",
        "name": "Govt. Womens polytechnic",
        "routes": [
          "13C",
          "13D",
          "13E"
        ]
      }
    },
    {
      "type": "Feature",
      "geometry": {
        "type": "Point",
        "coordinates": [
          74.9311,
          12.8342
        ]
      },
      "properties": {
        "id": "gramachavadi",
        "name": "Gramachavadi",
        "routes": [
          "44N",
          "44P"
        ]
      }
    },
    {
      "type": "Feature",
      "geometry": {
        "type": "Point",
        "coordinates": [
          74.856,
          12.9141
        ]
      },
      "properties": {
        "id": "gurupura",
        "name": "Gurupura",
        "routes": [
          "12A",
          "12B",
          "22",
          "22A"
        ]
      }
    },
    {
      "type": "Feature",
      "geometry": {
        "type": "Point",
        "coordinates": [
          74.8433,
          12.869
        ]
      },
      "properties": {
        "id": "hampankatta",
        "name": "Hampankatta",
        "routes": [
          "1C",
          "19"
        ]
      }
    },
    {
      "type": "Feature",
      "geometry": {
        "type": "Point",
        "coordinates": [
          74.9311,
          12.8342
        ]
      },
      "properties": {
        "id": "harekala",
        "name": "Harekala",
        "routes": [
          "44P",
          "55"
        ]
      }
    },
    {
      "type": "Feature",
      "geometry": {
        "type": "Point",
        "coordinates": [
          74.8374,
          12.85
        ]
      },
      "properties": {
        "id": "hoige-bazar",
        "name": "Hoige Bazar",
        "routes": [
          "18"
        ]
      }
    },
    {
      "type": "Feature",
      "geometry": {
        "type": "Point",
        "coordinates": [
          74.9636,
          12.7898
        ]
      },
      "properties": {
        "id": "hoohakuvakallu",
        "name": "Hoohakuvakallu",
        "routes": [
          "51E",
          "54B"
        ]
      }
    },
    {
      "type": "Feature",
      "geometry": {
        "type": "Point",
        "coordinates": [
          74.8037,
          12.9748
        ]
      },
      "properties": {
        "id": "hosabettu",
        "name": "Hosabettu",
        "routes": [
          "59"
        ]
      }
    },
    {
      "type": "Feature",
      "geometry": {
        "type": "Point",
        "coordinates": [
          74.8763,
          12.9062
        ]
      },
      "properties": {
        "id": "hudco-colony",
        "name": "Hudco Colony",
        "routes": [
          "13C",
          "13D",
          "13E"
        ]
      }
    },
    {
      "type": "Feature",
      "geometry": {
        "type": "Point",
        "coordinates": [
          74.9563,
          12.864
        ]
      },
      "properties": {
        "id": "inoli",
        "name": "Inoli",
        "routes": [
          "51A"
        ]
      }
    },
    {
      "type": "Feature",
      "geometry": {
        "type": "Point",
        "coordinates": [
          74.9563,
          12.864
        ]
      },
      "properties": {
        "id": "inoli-padav",
        "name": "Inoli Padav",
        "routes": [
          "44P",
          "51D",
          "51G"
        ]
      }
    },
    {
      "type": "Feature",
      "geometry": {
        "type": "Point",
        "coordinates": [
          74.9563,
          12.864
        ]
      },
      "properties": {
        "id": "inoli-temple",
        "name": "Inoli Temple",
        "routes": [
          "44N"
        ]
      }
    },
    {
      "type": "Feature",
      "geometry": {
        "type": "Point",
        "coordinates": [
          74.8433,
          12.8693
        ]
      },
      "properties": {
        "id": "j-m--road",
        "name": "J.M. Road",
        "routes": [
          "9A",
          "9B",
          "9C"
        ]
      }
    },
    {
      "type": "Feature",
      "geometry": {
        "type": "Point",
        "coordinates": [
          74.8362,
          12.9116
        ]
      },
      "properties": {
        "id": "jalligudde",
        "name": "Jalligudde",
        "routes": [
          "11B",
          "11C"
        ]
      }
    },
    {
      "type": "Feature",
      "geometry": {
        "type": "Point",
        "coordinates": [
          74.8362,
          12.9116
        ]
      },
      "properties": {
        "id": "jalligudde-cross",
        "name": "Jalligudde Cross",
        "routes": [
          "9",
          "9A",
          "9B",
          "11C"
        ]
      }
    },
    {
      "type": "Feature",
      "geometry": {
        "type": "Point",
        "coordinates": [
          74.8153,
          12.9866
        ]
      },
      "properties": {
        "id": "janatha-colony",
        "name": "Janatha Colony",
        "routes": [
          "15G",
          "45G",
          "65G"
        ]
      }
    },
    {
      "type": "Feature",
      "geometry": {
        "type": "Point",
        "coordinates": [
          74.8597,
          12.8463
        ]
      },
      "properties": {
        "id": "jeppinamogaru",
        "name": "Jeppinamogaru",
        "routes": [
          "9C",
          "54B"
        ]
      }
    },
    {
      "type": "Feature",
      "geometry": {
        "type": "Point",
        "coordinates": [
          74.8374,
          12.863
        ]
      },
      "properties": {
        "id": "jeppu",
        "name": "Jeppu",
        "routes": [
          "9A"
        ]
      }
    },
    {
      "type": "Feature",
      "geometry": {
        "type": "Point",
        "coordinates": [
          74.8374,
          12.863
        ]
      },
      "properties": {
        "id": "jeppu-market",
        "name": "Jeppu Market",
        "routes": [
          "14D",
          "18",
          "29",
          "44E"
        ]
      }
    },
    {
      "type": "Feature",
      "geometry": {
        "type": "Point",
        "coordinates": [
          74.8374,
          12.863
        ]
      },
      "properties": {
        "id": "jeppupatna",
        "name": "Jeppupatna",
        "routes": [
          "9A"
        ]
      }
    },
    {
      "type": "Feature",
      "geometry": {
        "type": "Point",
        "coordinates": [
          74.8442,
          12.9604
        ]
      },
      "properties": {
        "id": "jokatte",
        "name": "Jokatte",
        "routes": [
          "2B",
          "2C",
          "2D",
          "2E",
          "2F",
          "2G"
        ]
      }
    },
    {
      "type": "Feature",
      "geometry": {
        "type": "Point",
        "coordinates": [
          74.8494,
          12.8729
        ]
      },
      "properties": {
        "id": "jyothi",
        "name": "Jyothi",
        "routes": [
          "2E",
          "2F",
          "3A",
          "3D",
          "4E",
          "5",
          "6A",
          "6C",
          "9",
          "9B",
          "10A",
          "10B",
          "12A",
          "12B",
          "13E",
          "13F",
          "14A",
          "15G",
          "16B",
          "17",
          "17A",
          "17B",
          "19",
          "19A",
          "21",
          "21A",
          "22",
          "22A",
          "23",
          "23B",
          "30",
          "30B",
          "31C",
          "33",
          "37",
          "42",
          "43B",
          "44",
          "44A",
          "44B",
          "44C",
          "44D",
          "44I",
          "44M",
          "47",
          "47A",
          "47B",
          "47C",
          "47F",
          "51",
          "51A",
          "51B",
          "51E",
          "54",
          "54A",
          "55"
        ]
      }
    },
    {
      "type": "Feature",
      "geometry": {
        "type": "Point",
        "coordinates": [
          74.8433,
          12.8693
        ]
      },
      "properties": {
        "id": "k-s--rao-road",
        "name": "K.S. Rao Road",
        "routes": [
          "13C",
          "13D",
          "17",
          "17A",
          "17B",
          "31A",
          "33",
          "41A",
          "45",
          "45A",
          "45B",
          "45C",
          "45D",
          "45E",
          "45F",
          "45G",
          "45H",
          "47",
          "47A",
          "47B",
          "47C",
          "53",
          "59"
        ]
      }
    },
    {
      "type": "Feature",
      "geometry": {
        "type": "Point",
        "coordinates": [
          74.854,
          12.8907
        ]
      },
      "properties": {
        "id": "kpt",
        "name": "KPT",
        "routes": [
          "3G",
          "13G",
          "13H",
          "14",
          "14A",
          "14B",
          "14C",
          "14E",
          "15H",
          "16C",
          "19",
          "62A"
        ]
      }
    },
    {
      "type": "Feature",
      "geometry": {
        "type": "Point",
        "coordinates": [
          74.8418,
          12.8857
        ]
      },
      "properties": {
        "id": "ksrtc",
        "name": "KSRTC",
        "routes": [
          "11D",
          "15C",
          "15D",
          "15H",
          "15I",
          "15J",
          "19A",
          "47D"
        ]
      }
    },
    {
      "type": "Feature",
      "geometry": {
        "type": "Point",
        "coordinates": [
          74.8418,
          12.8857
        ]
      },
      "properties": {
        "id": "ksrtc-bus-stand",
        "name": "KSRTC Bus Stand",
        "routes": [
          "15",
          "15A",
          "15B",
          "17",
          "17A",
          "17B",
          "19",
          "33",
          "47",
          "47A",
          "47B",
          "47C"
        ]
      }
    },
    {
      "type": "Feature",
      "geometry": {
        "type": "Point",
        "coordinates": [
          74.8147,
          12.9835
        ]
      },
      "properties": {
        "id": "kaana",
        "name": "Kaana",
        "routes": [
          "2B"
        ]
      }
    },
    {
      "type": "Feature",
      "geometry": {
        "type": "Point",
        "coordinates": [
          74.8376,
          12.9855
        ]
      },
      "properties": {
        "id": "kaatipalla",
        "name": "Kaatipalla",
        "routes": [
          "62A"
        ]
      }
    },
    {
      "type": "Feature",
      "geometry": {
        "type": "Point",
        "coordinates": [
          74.8555,
          12.8836
        ]
      },
      "properties": {
        "id": "kadri",
        "name": "Kadri",
        "routes": [
          "3A",
          "3B",
          "3D",
          "3F",
          "4",
          "4A",
          "4C",
          "6A",
          "6B",
          "6C",
          "12A",
          "12B",
          "14A",
          "14B",
          "21",
          "30",
          "30B",
          "37",
          "53A"
        ]
      }
    },
    {
      "type": "Feature",
      "geometry": {
        "type": "Point",
        "coordinates": [
          74.8555,
          12.8836
        ]
      },
      "properties": {
        "id": "kadri-market",
        "name": "Kadri Market",
        "routes": [
          "14C",
          "15",
          "15A",
          "15B"
        ]
      }
    },
    {
      "type": "Feature",
      "geometry": {
        "type": "Point",
        "coordinates": [
          74.8555,
          12.8836
        ]
      },
      "properties": {
        "id": "kadri-temple",
        "name": "Kadri Temple",
        "routes": [
          "44I",
          "60",
          "61"
        ]
      }
    },
    {
      "type": "Feature",
      "geometry": {
        "type": "Point",
        "coordinates": [
          74.8347,
          12.9932
        ]
      },
      "properties": {
        "id": "kaikamba",
        "name": "Kaikamba",
        "routes": [
          "3E",
          "4A",
          "4C",
          "4D",
          "12A",
          "12B",
          "15I",
          "15J",
          "21",
          "22",
          "22A",
          "45C",
          "45F",
          "62A",
          "65"
        ]
      }
    },
    {
      "type": "Feature",
      "geometry": {
        "type": "Point",
        "coordinates": [
          74.856,
          12.9141
        ]
      },
      "properties": {
        "id": "kaithakumer",
        "name": "Kaithakumer",
        "routes": [
          "15C",
          "15F"
        ]
      }
    },
    {
      "type": "Feature",
      "geometry": {
        "type": "Point",
        "coordinates": [
          74.856,
          12.9141
        ]
      },
      "properties": {
        "id": "kaithakurneri",
        "name": "Kaithakurneri",
        "routes": [
          "45E"
        ]
      }
    },
    {
      "type": "Feature",
      "geometry": {
        "type": "Point",
        "coordinates": [
          74.856,
          12.9141
        ]
      },
      "properties": {
        "id": "kalavar",
        "name": "Kalavar",
        "routes": [
          "2E",
          "2F"
        ]
      }
    },
    {
      "type": "Feature",
      "geometry": {
        "type": "Point",
        "coordinates": [
          74.8147,
          12.9835
        ]
      },
      "properties": {
        "id": "kana",
        "name": "Kana",
        "routes": [
          "15G",
          "15H",
          "15L",
          "45",
          "45A",
          "45B",
          "45C",
          "45D",
          "45E",
          "45F",
          "45G",
          "45H",
          "53"
        ]
      }
    },
    {
      "type": "Feature",
      "geometry": {
        "type": "Point",
        "coordinates": [
          74.856,
          12.9141
        ]
      },
      "properties": {
        "id": "kandathpalli",
        "name": "Kandathpalli",
        "routes": [
          "16"
        ]
      }
    },
    {
      "type": "Feature",
      "geometry": {
        "type": "Point",
        "coordinates": [
          74.8577,
          12.8679
        ]
      },
      "properties": {
        "id": "kankanady",
        "name": "Kankanady",
        "routes": [
          "2E",
          "2F",
          "3B",
          "3K",
          "4",
          "4A",
          "4C",
          "4D",
          "4E",
          "5",
          "6B",
          "6D",
          "6F",
          "9",
          "10A",
          "10B",
          "11A",
          "11B",
          "11C",
          "13F",
          "13G",
          "14",
          "14C",
          "14D",
          "15",
          "15A",
          "15B",
          "15C",
          "15D",
          "15E",
          "15F",
          "15G",
          "15I",
          "15J",
          "19A",
          "23",
          "30",
          "30B",
          "31C",
          "37",
          "42",
          "43B",
          "44A",
          "44B",
          "44C",
          "44D",
          "44G",
          "44N",
          "47D",
          "51",
          "51A",
          "51B",
          "51D",
          "51E",
          "51K",
          "53A",
          "53C",
          "54",
          "54A",
          "55",
          "65E",
          "65G"
        ]
      }
    },
    {
      "type": "Feature",
      "geometry": {
        "type": "Point",
        "coordinates": [
          74.8778,
          12.8701
        ]
      },
      "properties": {
        "id": "kankanady-railway-station",
        "name": "Kankanady Railway Station",
        "routes": [
          "65"
        ]
      }
    },
    {
      "type": "Feature",
      "geometry": {
        "type": "Point",
        "coordinates": [
          74.856,
          12.9141
        ]
      },
      "properties": {
        "id": "kannagudde",
        "name": "Kannagudde",
        "routes": [
          "4D"
        ]
      }
    },
    {
      "type": "Feature",
      "geometry": {
        "type": "Point",
        "coordinates": [
          74.8937,
          12.8799
        ]
      },
      "properties": {
        "id": "kannurbettu",
        "name": "Kannurbettu",
        "routes": [
          "10A",
          "10B",
          "11A",
          "30B"
        ]
      }
    },
    {
      "type": "Feature",
      "geometry": {
        "type": "Point",
        "coordinates": [
          74.8586,
          12.8112
        ]
      },
      "properties": {
        "id": "kapikad",
        "name": "Kapikad",
        "routes": [
          "3F",
          "17",
          "17A",
          "17B",
          "33",
          "47",
          "47A",
          "47B",
          "47C"
        ]
      }
    },
    {
      "type": "Feature",
      "geometry": {
        "type": "Point",
        "coordinates": [
          74.856,
          12.9141
        ]
      },
      "properties": {
        "id": "karmar",
        "name": "Karmar",
        "routes": [
          "9"
        ]
      }
    },
    {
      "type": "Feature",
      "geometry": {
        "type": "Point",
        "coordinates": [
          74.8376,
          12.9855
        ]
      },
      "properties": {
        "id": "katipalla",
        "name": "Katipalla",
        "routes": [
          "3E",
          "13J",
          "15A",
          "15C",
          "15F",
          "15H",
          "15L",
          "41A",
          "45",
          "45A",
          "45B",
          "45C",
          "45D",
          "45E",
          "45F",
          "45H",
          "53",
          "53A",
          "53B",
          "53D"
        ]
      }
    },
    {
      "type": "Feature",
      "geometry": {
        "type": "Point",
        "coordinates": [
          74.856,
          12.9141
        ]
      },
      "properties": {
        "id": "kattalsara",
        "name": "Kattalsara",
        "routes": [
          "47C"
        ]
      }
    },
    {
      "type": "Feature",
      "geometry": {
        "type": "Point",
        "coordinates": [
          74.8289,
          12.9242
        ]
      },
      "properties": {
        "id": "kavoor",
        "name": "Kavoor",
        "routes": [
          "1",
          "3E",
          "3H",
          "9C",
          "13B",
          "13C",
          "13D",
          "13E",
          "13G",
          "13H",
          "13J",
          "13K",
          "17",
          "17A",
          "17B",
          "47",
          "47A",
          "47B",
          "47C",
          "47D",
          "47F",
          "62A"
        ]
      }
    },
    {
      "type": "Feature",
      "geometry": {
        "type": "Point",
        "coordinates": [
          74.8504,
          12.9678
        ]
      },
      "properties": {
        "id": "kenjaru",
        "name": "Kenjaru",
        "routes": [
          "47F"
        ]
      }
    },
    {
      "type": "Feature",
      "geometry": {
        "type": "Point",
        "coordinates": [
          74.8418,
          12.8858
        ]
      },
      "properties": {
        "id": "khadgeshwari",
        "name": "Khadgeshwari",
        "routes": [
          "13K"
        ]
      }
    },
    {
      "type": "Feature",
      "geometry": {
        "type": "Point",
        "coordinates": [
          74.856,
          12.9141
        ]
      },
      "properties": {
        "id": "khandige",
        "name": "Khandige",
        "routes": [
          "15N"
        ]
      }
    },
    {
      "type": "Feature",
      "geometry": {
        "type": "Point",
        "coordinates": [
          74.856,
          12.9141
        ]
      },
      "properties": {
        "id": "kinya",
        "name": "Kinya",
        "routes": [
          "43B",
          "51K"
        ]
      }
    },
    {
      "type": "Feature",
      "geometry": {
        "type": "Point",
        "coordinates": [
          74.8358,
          12.9106
        ]
      },
      "properties": {
        "id": "kodikal",
        "name": "Kodikal",
        "routes": [
          "1B",
          "1C",
          "61"
        ]
      }
    },
    {
      "type": "Feature",
      "geometry": {
        "type": "Point",
        "coordinates": [
          74.8358,
          12.9106
        ]
      },
      "properties": {
        "id": "kodikal-cross",
        "name": "Kodikal Cross",
        "routes": [
          "1C",
          "13H",
          "61"
        ]
      }
    },
    {
      "type": "Feature",
      "geometry": {
        "type": "Point",
        "coordinates": [
          74.856,
          12.9141
        ]
      },
      "properties": {
        "id": "kodikere",
        "name": "Kodikere",
        "routes": [
          "2G",
          "13G"
        ]
      }
    },
    {
      "type": "Feature",
      "geometry": {
        "type": "Point",
        "coordinates": [
          74.856,
          12.9141
        ]
      },
      "properties": {
        "id": "kolthamajal",
        "name": "Kolthamajal",
        "routes": [
          "12B"
        ]
      }
    },
    {
      "type": "Feature",
      "geometry": {
        "type": "Point",
        "coordinates": [
          74.856,
          12.9141
        ]
      },
      "properties": {
        "id": "kombel",
        "name": "Kombel",
        "routes": [
          "3F"
        ]
      }
    },
    {
      "type": "Feature",
      "geometry": {
        "type": "Point",
        "coordinates": [
          74.9309,
          12.822
        ]
      },
      "properties": {
        "id": "konaje",
        "name": "Konaje",
        "routes": [
          "44K",
          "51",
          "51A",
          "51B",
          "51C",
          "51E",
          "51G",
          "55"
        ]
      }
    },
    {
      "type": "Feature",
      "geometry": {
        "type": "Point",
        "coordinates": [
          74.8674,
          12.9104
        ]
      },
      "properties": {
        "id": "konchadi",
        "name": "Konchadi",
        "routes": [
          "14A",
          "14B",
          "14C",
          "17",
          "17A",
          "17B",
          "19",
          "33"
        ]
      }
    },
    {
      "type": "Feature",
      "geometry": {
        "type": "Point",
        "coordinates": [
          74.9027,
          12.8024
        ]
      },
      "properties": {
        "id": "kotekar",
        "name": "Kotekar",
        "routes": [
          "42",
          "43B",
          "44B",
          "51B"
        ]
      }
    },
    {
      "type": "Feature",
      "geometry": {
        "type": "Point",
        "coordinates": [
          74.856,
          12.9141
        ]
      },
      "properties": {
        "id": "kotepura",
        "name": "Kotepura",
        "routes": [
          "44D"
        ]
      }
    },
    {
      "type": "Feature",
      "geometry": {
        "type": "Point",
        "coordinates": [
          74.8362,
          12.9116
        ]
      },
      "properties": {
        "id": "kottara",
        "name": "Kottara",
        "routes": [
          "3F",
          "3G",
          "3L",
          "11D",
          "13A",
          "15C",
          "51B",
          "51D",
          "60B",
          "65E"
        ]
      }
    },
    {
      "type": "Feature",
      "geometry": {
        "type": "Point",
        "coordinates": [
          74.8362,
          12.9116
        ]
      },
      "properties": {
        "id": "kottara-chowki",
        "name": "Kottara Chowki",
        "routes": [
          "45",
          "45A",
          "45B",
          "45C",
          "45D",
          "45E",
          "45F",
          "45G",
          "45H",
          "53"
        ]
      }
    },
    {
      "type": "Feature",
      "geometry": {
        "type": "Point",
        "coordinates": [
          74.8362,
          12.9116
        ]
      },
      "properties": {
        "id": "kottara-cross",
        "name": "Kottara Cross",
        "routes": [
          "17",
          "17A",
          "17B",
          "33",
          "47",
          "47A",
          "47B",
          "47C"
        ]
      }
    },
    {
      "type": "Feature",
      "geometry": {
        "type": "Point",
        "coordinates": [
          74.8095,
          12.9952
        ]
      },
      "properties": {
        "id": "krishnapura",
        "name": "Krishnapura",
        "routes": [
          "15A",
          "15B",
          "15C",
          "15I",
          "15J",
          "41A",
          "45",
          "45A",
          "45B",
          "45C",
          "45D",
          "45E",
          "45F",
          "45H",
          "53"
        ]
      }
    },
    {
      "type": "Feature",
      "geometry": {
        "type": "Point",
        "coordinates": [
          74.8931,
          12.9041
        ]
      },
      "properties": {
        "id": "kudpu-temple",
        "name": "Kudpu Temple",
        "routes": [
          "3C"
        ]
      }
    },
    {
      "type": "Feature",
      "geometry": {
        "type": "Point",
        "coordinates": [
          74.8631,
          12.9242
        ]
      },
      "properties": {
        "id": "kudremukh-housing-colony",
        "name": "Kudremukh Housing Colony",
        "routes": [
          "13C",
          "13D",
          "13E"
        ]
      }
    },
    {
      "type": "Feature",
      "geometry": {
        "type": "Point",
        "coordinates": [
          74.8317,
          12.8762
        ]
      },
      "properties": {
        "id": "kudroli",
        "name": "Kudroli",
        "routes": [
          "16",
          "16A"
        ]
      }
    },
    {
      "type": "Feature",
      "geometry": {
        "type": "Point",
        "coordinates": [
          74.8931,
          12.9041
        ]
      },
      "properties": {
        "id": "kudupu",
        "name": "Kudupu",
        "routes": [
          "3A",
          "3B",
          "12A",
          "12B"
        ]
      }
    },
    {
      "type": "Feature",
      "geometry": {
        "type": "Point",
        "coordinates": [
          74.856,
          12.9141
        ]
      },
      "properties": {
        "id": "kullikola",
        "name": "Kullikola",
        "routes": [
          "4E"
        ]
      }
    },
    {
      "type": "Feature",
      "geometry": {
        "type": "Point",
        "coordinates": [
          74.8361,
          12.8943
        ]
      },
      "properties": {
        "id": "kuloor",
        "name": "Kuloor",
        "routes": [
          "1A",
          "2B",
          "3E",
          "13B",
          "13C",
          "13D",
          "13E",
          "13F",
          "13G",
          "13H",
          "13J",
          "13K",
          "15",
          "15A",
          "15B",
          "15C",
          "15D",
          "15E",
          "15F",
          "41A",
          "45",
          "45A",
          "45B",
          "45C",
          "45D",
          "45E",
          "45F",
          "45G",
          "45H",
          "51C",
          "53",
          "53A",
          "53B",
          "59",
          "62A"
        ]
      }
    },
    {
      "type": "Feature",
      "geometry": {
        "type": "Point",
        "coordinates": [
          74.8362,
          12.9116
        ]
      },
      "properties": {
        "id": "kulshekar",
        "name": "Kulshekar",
        "routes": [
          "3A",
          "3B",
          "4",
          "4A",
          "4C",
          "6A",
          "6B",
          "6C",
          "12A",
          "12B",
          "21",
          "22",
          "22A"
        ]
      }
    },
    {
      "type": "Feature",
      "geometry": {
        "type": "Point",
        "coordinates": [
          74.8362,
          12.9116
        ]
      },
      "properties": {
        "id": "kulshekar-chowki",
        "name": "Kulshekar Chowki",
        "routes": [
          "4"
        ]
      }
    },
    {
      "type": "Feature",
      "geometry": {
        "type": "Point",
        "coordinates": [
          74.8347,
          12.9932
        ]
      },
      "properties": {
        "id": "kulshekar-kaikamba",
        "name": "Kulshekar Kaikamba",
        "routes": [
          "13L",
          "15A"
        ]
      }
    },
    {
      "type": "Feature",
      "geometry": {
        "type": "Point",
        "coordinates": [
          74.8398,
          12.9263
        ]
      },
      "properties": {
        "id": "kumpala",
        "name": "Kumpala",
        "routes": [
          "44",
          "44E"
        ]
      }
    },
    {
      "type": "Feature",
      "geometry": {
        "type": "Point",
        "coordinates": [
          74.8398,
          12.9263
        ]
      },
      "properties": {
        "id": "kumpala-cross",
        "name": "Kumpala cross",
        "routes": [
          "44I"
        ]
      }
    },
    {
      "type": "Feature",
      "geometry": {
        "type": "Point",
        "coordinates": [
          74.854,
          12.943
        ]
      },
      "properties": {
        "id": "kunjathbail",
        "name": "Kunjathbail",
        "routes": [
          "1",
          "9C",
          "13B",
          "13F",
          "13G",
          "13J",
          "13K",
          "14F",
          "17",
          "17A",
          "17B"
        ]
      }
    },
    {
      "type": "Feature",
      "geometry": {
        "type": "Point",
        "coordinates": [
          74.854,
          12.8907
        ]
      },
      "properties": {
        "id": "kuntikana",
        "name": "Kuntikana",
        "routes": [
          "3G",
          "17",
          "17A",
          "17B",
          "33",
          "47",
          "47A",
          "47B",
          "47C",
          "47D",
          "65"
        ]
      }
    },
    {
      "type": "Feature",
      "geometry": {
        "type": "Point",
        "coordinates": [
          74.856,
          12.9141
        ]
      },
      "properties": {
        "id": "kuthar",
        "name": "Kuthar",
        "routes": [
          "55"
        ]
      }
    },
    {
      "type": "Feature",
      "geometry": {
        "type": "Point",
        "coordinates": [
          74.856,
          12.9141
        ]
      },
      "properties": {
        "id": "kuthar-padavu",
        "name": "Kuthar Padavu",
        "routes": [
          "44G",
          "44K",
          "51T"
        ]
      }
    },
    {
      "type": "Feature",
      "geometry": {
        "type": "Point",
        "coordinates": [
          74.8442,
          12.9837
        ]
      },
      "properties": {
        "id": "kuthethoor",
        "name": "Kuthethoor",
        "routes": [
          "15D",
          "45D"
        ]
      }
    },
    {
      "type": "Feature",
      "geometry": {
        "type": "Point",
        "coordinates": [
          74.835,
          12.8888
        ]
      },
      "properties": {
        "id": "ladyhill",
        "name": "Ladyhill",
        "routes": [
          "1",
          "1B",
          "1C",
          "7",
          "9C",
          "13",
          "13A",
          "13B",
          "13C",
          "13D",
          "13E",
          "13H",
          "15",
          "15A",
          "15B",
          "15C",
          "15D",
          "15E",
          "15F",
          "15G",
          "15H",
          "15I",
          "15J",
          "15K",
          "15L",
          "15N",
          "16B",
          "16C",
          "31A",
          "41A",
          "44I",
          "45",
          "45A",
          "45B",
          "45C",
          "45D",
          "45E",
          "45F",
          "45G",
          "45H",
          "47F",
          "51B",
          "53",
          "53C",
          "59",
          "60",
          "60B",
          "61"
        ]
      }
    },
    {
      "type": "Feature",
      "geometry": {
        "type": "Point",
        "coordinates": [
          74.8419,
          12.8857
        ]
      },
      "properties": {
        "id": "lalbagh",
        "name": "Lalbagh",
        "routes": [
          "1A",
          "1C",
          "2",
          "2A",
          "2C",
          "2D",
          "2E",
          "2F",
          "13C",
          "13D",
          "13E",
          "13G",
          "13H",
          "15",
          "15A",
          "15B",
          "15C",
          "15D",
          "15E",
          "15F",
          "15H",
          "15J",
          "16B",
          "16C",
          "17",
          "17A",
          "17B",
          "19",
          "31A",
          "33",
          "41A",
          "45",
          "45A",
          "45B",
          "45C",
          "45D",
          "45E",
          "45F",
          "45G",
          "45H",
          "47",
          "47A",
          "47B",
          "47C",
          "51G",
          "53",
          "59"
        ]
      }
    },
    {
      "type": "Feature",
      "geometry": {
        "type": "Point",
        "coordinates": [
          74.8421,
          12.8466
        ]
      },
      "properties": {
        "id": "lewell",
        "name": "Lewell",
        "routes": [
          "44E"
        ]
      }
    },
    {
      "type": "Feature",
      "geometry": {
        "type": "Point",
        "coordinates": [
          74.8631,
          12.9242
        ]
      },
      "properties": {
        "id": "mcf-colony",
        "name": "MCF colony",
        "routes": [
          "1"
        ]
      }
    },
    {
      "type": "Feature",
      "geometry": {
        "type": "Point",
        "coordinates": [
          74.8442,
          12.9837
        ]
      },
      "properties": {
        "id": "mrpl",
        "name": "MRPL",
        "routes": [
          "15C",
          "15D",
          "15F",
          "45D",
          "45E",
          "51C"
        ]
      }
    },
    {
      "type": "Feature",
      "geometry": {
        "type": "Point",
        "coordinates": [
          74.8928,
          12.8367
        ]
      },
      "properties": {
        "id": "madaka",
        "name": "Madaka",
        "routes": [
          "44G"
        ]
      }
    },
    {
      "type": "Feature",
      "geometry": {
        "type": "Point",
        "coordinates": [
          74.856,
          12.9141
        ]
      },
      "properties": {
        "id": "maddur",
        "name": "Maddur",
        "routes": [
          "54"
        ]
      }
    },
    {
      "type": "Feature",
      "geometry": {
        "type": "Point",
        "coordinates": [
          74.9327,
          12.8824
        ]
      },
      "properties": {
        "id": "madhya-padavu",
        "name": "Madhya Padavu",
        "routes": [
          "15A",
          "15H",
          "15N",
          "45H"
        ]
      }
    },
    {
      "type": "Feature",
      "geometry": {
        "type": "Point",
        "coordinates": [
          74.856,
          12.9141
        ]
      },
      "properties": {
        "id": "madoor",
        "name": "Madoor",
        "routes": [
          "51B"
        ]
      }
    },
    {
      "type": "Feature",
      "geometry": {
        "type": "Point",
        "coordinates": [
          74.856,
          12.9141
        ]
      },
      "properties": {
        "id": "malar-school",
        "name": "Malar School",
        "routes": [
          "44N"
        ]
      }
    },
    {
      "type": "Feature",
      "geometry": {
        "type": "Point",
        "coordinates": [
          74.856,
          12.9141
        ]
      },
      "properties": {
        "id": "mallar",
        "name": "Mallar",
        "routes": [
          "44G"
        ]
      }
    },
    {
      "type": "Feature",
      "geometry": {
        "type": "Point",
        "coordinates": [
          74.8573,
          12.8799
        ]
      },
      "properties": {
        "id": "mallikatte",
        "name": "Mallikatte",
        "routes": [
          "3A",
          "3B",
          "3F",
          "4",
          "4A",
          "4C",
          "4E",
          "6A",
          "6B",
          "6C",
          "12A",
          "12B",
          "14A",
          "14B",
          "14C",
          "15",
          "15A",
          "15B",
          "15L",
          "21",
          "22",
          "22A",
          "30",
          "30B",
          "37"
        ]
      }
    },
    {
      "type": "Feature",
      "geometry": {
        "type": "Point",
        "coordinates": [
          74.8433,
          12.8693
        ]
      },
      "properties": {
        "id": "mandi",
        "name": "Mandi",
        "routes": [
          "16"
        ]
      }
    },
    {
      "type": "Feature",
      "geometry": {
        "type": "Point",
        "coordinates": [
          74.8418,
          12.8858
        ]
      },
      "properties": {
        "id": "mangala-jyothi",
        "name": "Mangala Jyothi",
        "routes": [
          "3C"
        ]
      }
    },
    {
      "type": "Feature",
      "geometry": {
        "type": "Point",
        "coordinates": [
          74.8454,
          12.8492
        ]
      },
      "properties": {
        "id": "mangaldevi",
        "name": "Mangaldevi",
        "routes": [
          "3B",
          "3C",
          "4D",
          "4E",
          "6D",
          "11C",
          "13E",
          "13F",
          "13G",
          "13H",
          "14C",
          "15",
          "15A",
          "15B",
          "15C",
          "15D",
          "15E",
          "15F",
          "15G",
          "15H",
          "15I",
          "15J",
          "15K",
          "15N",
          "15P",
          "27",
          "27A",
          "31C",
          "44J",
          "47F",
          "53C"
        ]
      }
    },
    {
      "type": "Feature",
      "geometry": {
        "type": "Point",
        "coordinates": [
          74.8454,
          12.8492
        ]
      },
      "properties": {
        "id": "mangaldevi-temple",
        "name": "Mangaldevi Temple",
        "routes": [
          "29A"
        ]
      }
    },
    {
      "type": "Feature",
      "geometry": {
        "type": "Point",
        "coordinates": [
          74.8778,
          12.8701
        ]
      },
      "properties": {
        "id": "mangalore-junction",
        "name": "Mangalore Junction",
        "routes": [
          "60",
          "61"
        ]
      }
    },
    {
      "type": "Feature",
      "geometry": {
        "type": "Point",
        "coordinates": [
          74.8947,
          12.8085
        ]
      },
      "properties": {
        "id": "mangalore-university",
        "name": "Mangalore University",
        "routes": [
          "51",
          "51A"
        ]
      }
    },
    {
      "type": "Feature",
      "geometry": {
        "type": "Point",
        "coordinates": [
          74.8374,
          12.863
        ]
      },
      "properties": {
        "id": "mangalpete",
        "name": "Mangalpete",
        "routes": [
          "45C",
          "45D",
          "45E"
        ]
      }
    },
    {
      "type": "Feature",
      "geometry": {
        "type": "Point",
        "coordinates": [
          74.9027,
          12.8024
        ]
      },
      "properties": {
        "id": "manjanady",
        "name": "Manjanady",
        "routes": [
          "54",
          "54A",
          "54B"
        ]
      }
    },
    {
      "type": "Feature",
      "geometry": {
        "type": "Point",
        "coordinates": [
          74.8524,
          12.9107
        ]
      },
      "properties": {
        "id": "mannagudda",
        "name": "Mannagudda",
        "routes": [
          "1",
          "1B",
          "7",
          "13",
          "13A",
          "31",
          "31 B",
          "31C"
        ]
      }
    },
    {
      "type": "Feature",
      "geometry": {
        "type": "Point",
        "coordinates": [
          74.856,
          12.9141
        ]
      },
      "properties": {
        "id": "maravoor",
        "name": "Maravoor",
        "routes": [
          "17",
          "17A",
          "17B",
          "47",
          "47A",
          "47B",
          "47C"
        ]
      }
    },
    {
      "type": "Feature",
      "geometry": {
        "type": "Point",
        "coordinates": [
          74.856,
          12.9141
        ]
      },
      "properties": {
        "id": "markada",
        "name": "Markada",
        "routes": [
          "13B",
          "47D",
          "47F"
        ]
      }
    },
    {
      "type": "Feature",
      "geometry": {
        "type": "Point",
        "coordinates": [
          74.8517,
          12.8528
        ]
      },
      "properties": {
        "id": "marnamikatta",
        "name": "Marnamikatta",
        "routes": [
          "5",
          "27",
          "27A"
        ]
      }
    },
    {
      "type": "Feature",
      "geometry": {
        "type": "Point",
        "coordinates": [
          74.8633,
          12.883
        ]
      },
      "properties": {
        "id": "maroli",
        "name": "Maroli",
        "routes": [
          "30",
          "30B",
          "37"
        ]
      }
    },
    {
      "type": "Feature",
      "geometry": {
        "type": "Point",
        "coordinates": [
          74.8674,
          12.9104
        ]
      },
      "properties": {
        "id": "maryhill",
        "name": "Maryhill",
        "routes": [
          "19A"
        ]
      }
    },
    {
      "type": "Feature",
      "geometry": {
        "type": "Point",
        "coordinates": [
          74.8433,
          12.8693
        ]
      },
      "properties": {
        "id": "mason-road",
        "name": "Mason Road",
        "routes": [
          "45G"
        ]
      }
    },
    {
      "type": "Feature",
      "geometry": {
        "type": "Point",
        "coordinates": [
          74.9327,
          12.8824
        ]
      },
      "properties": {
        "id": "merlapadav",
        "name": "Merlapadav",
        "routes": [
          "4A",
          "4E",
          "21A"
        ]
      }
    },
    {
      "type": "Feature",
      "geometry": {
        "type": "Point",
        "coordinates": [
          74.8444,
          12.8693
        ]
      },
      "properties": {
        "id": "milagres",
        "name": "Milagres",
        "routes": [
          "17",
          "17A",
          "17B",
          "33",
          "47",
          "47A",
          "47B",
          "47C"
        ]
      }
    },
    {
      "type": "Feature",
      "geometry": {
        "type": "Point",
        "coordinates": [
          74.8433,
          12.8693
        ]
      },
      "properties": {
        "id": "mission-street",
        "name": "Mission Street",
        "routes": [
          "16"
        ]
      }
    },
    {
      "type": "Feature",
      "geometry": {
        "type": "Point",
        "coordinates": [
          74.8885,
          12.9297
        ]
      },
      "properties": {
        "id": "moodushedde",
        "name": "Moodushedde",
        "routes": [
          "3A",
          "3B",
          "3C",
          "3E",
          "3H",
          "3K",
          "3L"
        ]
      }
    },
    {
      "type": "Feature",
      "geometry": {
        "type": "Point",
        "coordinates": [
          74.856,
          12.9141
        ]
      },
      "properties": {
        "id": "moorukatte",
        "name": "Moorukatte",
        "routes": [
          "44E",
          "44I"
        ]
      }
    },
    {
      "type": "Feature",
      "geometry": {
        "type": "Point",
        "coordinates": [
          74.8524,
          12.8486
        ]
      },
      "properties": {
        "id": "morgans-gate",
        "name": "Morgans Gate",
        "routes": [
          "4D",
          "4E",
          "5",
          "6F",
          "9A",
          "11C",
          "14C",
          "15",
          "15A",
          "15B",
          "15N",
          "18",
          "29",
          "29A",
          "54B"
        ]
      }
    },
    {
      "type": "Feature",
      "geometry": {
        "type": "Point",
        "coordinates": [
          74.9637,
          12.8031
        ]
      },
      "properties": {
        "id": "mudipu",
        "name": "Mudipu",
        "routes": [
          "51E"
        ]
      }
    },
    {
      "type": "Feature",
      "geometry": {
        "type": "Point",
        "coordinates": [
          74.8634,
          12.8515
        ]
      },
      "properties": {
        "id": "mugeru",
        "name": "Mugeru",
        "routes": [
          "9A",
          "9B"
        ]
      }
    },
    {
      "type": "Feature",
      "geometry": {
        "type": "Point",
        "coordinates": [
          74.7903,
          13.0215
        ]
      },
      "properties": {
        "id": "mukka",
        "name": "Mukka",
        "routes": [
          "2",
          "2A"
        ]
      }
    },
    {
      "type": "Feature",
      "geometry": {
        "type": "Point",
        "coordinates": [
          74.856,
          12.9141
        ]
      },
      "properties": {
        "id": "mulihithlu",
        "name": "Mulihithlu",
        "routes": [
          "27A",
          "44E",
          "54B"
        ]
      }
    },
    {
      "type": "Feature",
      "geometry": {
        "type": "Point",
        "coordinates": [
          74.8524,
          12.9107
        ]
      },
      "properties": {
        "id": "mullakadu",
        "name": "Mullakadu",
        "routes": [
          "17",
          "17A",
          "17B"
        ]
      }
    },
    {
      "type": "Feature",
      "geometry": {
        "type": "Point",
        "coordinates": [
          74.856,
          12.9141
        ]
      },
      "properties": {
        "id": "mungaru",
        "name": "Mungaru",
        "routes": [
          "15P"
        ]
      }
    },
    {
      "type": "Feature",
      "geometry": {
        "type": "Point",
        "coordinates": [
          74.8487,
          12.887
        ]
      },
      "properties": {
        "id": "museum",
        "name": "Museum",
        "routes": [
          "60",
          "61"
        ]
      }
    },
    {
      "type": "Feature",
      "geometry": {
        "type": "Point",
        "coordinates": [
          74.856,
          12.9141
        ]
      },
      "properties": {
        "id": "muthappagudi",
        "name": "Muthappagudi",
        "routes": [
          "6D"
        ]
      }
    },
    {
      "type": "Feature",
      "geometry": {
        "type": "Point",
        "coordinates": [
          74.8727,
          12.8695
        ]
      },
      "properties": {
        "id": "nagori",
        "name": "Nagori",
        "routes": [
          "9",
          "10A",
          "10B",
          "11A",
          "11B",
          "11C",
          "23"
        ]
      }
    },
    {
      "type": "Feature",
      "geometry": {
        "type": "Point",
        "coordinates": [
          74.8494,
          12.9149
        ]
      },
      "properties": {
        "id": "nandanapura",
        "name": "Nandanapura",
        "routes": [
          "60"
        ]
      }
    },
    {
      "type": "Feature",
      "geometry": {
        "type": "Point",
        "coordinates": [
          74.8536,
          12.8555
        ]
      },
      "properties": {
        "id": "nandi-gudda",
        "name": "Nandi Gudda",
        "routes": [
          "5",
          "6D",
          "11C",
          "13H",
          "14C",
          "15",
          "15A",
          "15B",
          "27",
          "27A",
          "31C",
          "47F",
          "53C"
        ]
      }
    },
    {
      "type": "Feature",
      "geometry": {
        "type": "Point",
        "coordinates": [
          74.8633,
          12.883
        ]
      },
      "properties": {
        "id": "nanthoor",
        "name": "Nanthoor",
        "routes": [
          "3C",
          "4A",
          "4B",
          "4C",
          "4D",
          "4E",
          "6D",
          "6F",
          "13H",
          "14A",
          "14B",
          "14C",
          "14D",
          "14F",
          "15",
          "15A",
          "15B",
          "15C",
          "15D",
          "15E",
          "15F",
          "15H",
          "15I",
          "15J",
          "15K",
          "15L",
          "15N",
          "15P",
          "16C",
          "21",
          "21A",
          "22",
          "22A",
          "30",
          "30B",
          "37",
          "47D",
          "51G",
          "53A",
          "53C",
          "65G"
        ]
      }
    },
    {
      "type": "Feature",
      "geometry": {
        "type": "Point",
        "coordinates": [
          74.8309,
          12.8759
        ]
      },
      "properties": {
        "id": "narayanaguru-iti",
        "name": "Narayanaguru ITI",
        "routes": [
          "15H"
        ]
      }
    },
    {
      "type": "Feature",
      "geometry": {
        "type": "Point",
        "coordinates": [
          74.856,
          12.9141
        ]
      },
      "properties": {
        "id": "narya",
        "name": "Narya",
        "routes": [
          "54B"
        ]
      }
    },
    {
      "type": "Feature",
      "geometry": {
        "type": "Point",
        "coordinates": [
          74.9027,
          12.8024
        ]
      },
      "properties": {
        "id": "natekal",
        "name": "Natekal",
        "routes": [
          "54",
          "54A",
          "55"
        ]
      }
    },
    {
      "type": "Feature",
      "geometry": {
        "type": "Point",
        "coordinates": [
          74.9095,
          12.8939
        ]
      },
      "properties": {
        "id": "neermarga",
        "name": "Neermarga",
        "routes": [
          "4A",
          "4C",
          "21"
        ]
      }
    },
    {
      "type": "Feature",
      "geometry": {
        "type": "Point",
        "coordinates": [
          74.8433,
          12.8693
        ]
      },
      "properties": {
        "id": "nehru-circle",
        "name": "Nehru Circle",
        "routes": [
          "16B",
          "31C",
          "44E",
          "44J"
        ]
      }
    },
    {
      "type": "Feature",
      "geometry": {
        "type": "Point",
        "coordinates": [
          74.9095,
          12.8939
        ]
      },
      "properties": {
        "id": "nirmarga",
        "name": "Nirmarga",
        "routes": [
          "4E",
          "21A"
        ]
      }
    },
    {
      "type": "Feature",
      "geometry": {
        "type": "Point",
        "coordinates": [
          74.856,
          12.9141
        ]
      },
      "properties": {
        "id": "ombathukere",
        "name": "Ombathukere",
        "routes": [
          "44K"
        ]
      }
    },
    {
      "type": "Feature",
      "geometry": {
        "type": "Point",
        "coordinates": [
          74.842,
          12.8759
        ]
      },
      "properties": {
        "id": "pvs",
        "name": "PVS",
        "routes": [
          "15G",
          "16B",
          "17",
          "17A",
          "17B",
          "19",
          "19A",
          "31",
          "31A",
          "33",
          "41A",
          "45",
          "45A",
          "45B",
          "45C",
          "45D",
          "45E",
          "45F",
          "45G",
          "45H",
          "47",
          "47A",
          "47B",
          "47C",
          "47F",
          "51B",
          "53",
          "59"
        ]
      }
    },
    {
      "type": "Feature",
      "geometry": {
        "type": "Point",
        "coordinates": [
          74.8871,
          12.9154
        ]
      },
      "properties": {
        "id": "pachanady",
        "name": "Pachanady",
        "routes": [
          "3E",
          "13D",
          "14E",
          "19"
        ]
      }
    },
    {
      "type": "Feature",
      "geometry": {
        "type": "Point",
        "coordinates": [
          74.856,
          12.9141
        ]
      },
      "properties": {
        "id": "padangady",
        "name": "Padangady",
        "routes": [
          "13D",
          "14A",
          "14B",
          "14C"
        ]
      }
    },
    {
      "type": "Feature",
      "geometry": {
        "type": "Point",
        "coordinates": [
          74.8674,
          12.9104
        ]
      },
      "properties": {
        "id": "padavinangadi",
        "name": "Padavinangadi",
        "routes": [
          "14",
          "19"
        ]
      }
    },
    {
      "type": "Feature",
      "geometry": {
        "type": "Point",
        "coordinates": [
          74.8856,
          12.8714
        ]
      },
      "properties": {
        "id": "padil",
        "name": "Padil",
        "routes": [
          "9",
          "10A",
          "10B",
          "11A",
          "11B",
          "11C",
          "23",
          "30",
          "30B",
          "37",
          "61"
        ]
      }
    },
    {
      "type": "Feature",
      "geometry": {
        "type": "Point",
        "coordinates": [
          74.8856,
          12.8714
        ]
      },
      "properties": {
        "id": "padil-railway-station",
        "name": "Padil Railway Station",
        "routes": [
          "62A"
        ]
      }
    },
    {
      "type": "Feature",
      "geometry": {
        "type": "Point",
        "coordinates": [
          74.856,
          12.9141
        ]
      },
      "properties": {
        "id": "pallakere",
        "name": "Pallakere",
        "routes": [
          "11D"
        ]
      }
    },
    {
      "type": "Feature",
      "geometry": {
        "type": "Point",
        "coordinates": [
          74.8159,
          12.9399
        ]
      },
      "properties": {
        "id": "panambur",
        "name": "Panambur",
        "routes": [
          "2B",
          "45",
          "45A",
          "45B",
          "45C",
          "45D",
          "45E",
          "45F",
          "45G",
          "45H",
          "51G",
          "53"
        ]
      }
    },
    {
      "type": "Feature",
      "geometry": {
        "type": "Point",
        "coordinates": [
          74.8374,
          12.863
        ]
      },
      "properties": {
        "id": "pandeshwar",
        "name": "Pandeshwar",
        "routes": [
          "9A",
          "18",
          "29",
          "29A",
          "31C",
          "54B"
        ]
      }
    },
    {
      "type": "Feature",
      "geometry": {
        "type": "Point",
        "coordinates": [
          74.8398,
          12.9263
        ]
      },
      "properties": {
        "id": "panjimogaru",
        "name": "Panjimogaru",
        "routes": [
          "13B"
        ]
      }
    },
    {
      "type": "Feature",
      "geometry": {
        "type": "Point",
        "coordinates": [
          74.856,
          12.9141
        ]
      },
      "properties": {
        "id": "parkodi",
        "name": "Parkodi",
        "routes": [
          "2D"
        ]
      }
    },
    {
      "type": "Feature",
      "geometry": {
        "type": "Point",
        "coordinates": [
          74.9169,
          12.8586
        ]
      },
      "properties": {
        "id": "pavoor",
        "name": "Pavoor",
        "routes": [
          "44P",
          "55"
        ]
      }
    },
    {
      "type": "Feature",
      "geometry": {
        "type": "Point",
        "coordinates": [
          74.8856,
          12.8714
        ]
      },
      "properties": {
        "id": "pedamale",
        "name": "Pedamale",
        "routes": [
          "4B"
        ]
      }
    },
    {
      "type": "Feature",
      "geometry": {
        "type": "Point",
        "coordinates": [
          74.8979,
          12.9229
        ]
      },
      "properties": {
        "id": "pilikula",
        "name": "Pilikula",
        "routes": [
          "3E"
        ]
      }
    },
    {
      "type": "Feature",
      "geometry": {
        "type": "Point",
        "coordinates": [
          74.9555,
          12.9335
        ]
      },
      "properties": {
        "id": "polali",
        "name": "Polali",
        "routes": [
          "12A",
          "12B"
        ]
      }
    },
    {
      "type": "Feature",
      "geometry": {
        "type": "Point",
        "coordinates": [
          74.8666,
          12.9679
        ]
      },
      "properties": {
        "id": "porkodi",
        "name": "Porkodi",
        "routes": [
          "47F",
          "53D"
        ]
      }
    },
    {
      "type": "Feature",
      "geometry": {
        "type": "Point",
        "coordinates": [
          74.8374,
          12.85
        ]
      },
      "properties": {
        "id": "port-temple",
        "name": "Port Temple",
        "routes": [
          "2B"
        ]
      }
    },
    {
      "type": "Feature",
      "geometry": {
        "type": "Point",
        "coordinates": [
          74.8763,
          12.9062
        ]
      },
      "properties": {
        "id": "preetinagar",
        "name": "Preetinagar",
        "routes": [
          "6F"
        ]
      }
    },
    {
      "type": "Feature",
      "geometry": {
        "type": "Point",
        "coordinates": [
          74.8644,
          12.8688
        ]
      },
      "properties": {
        "id": "pumpwell",
        "name": "Pumpwell",
        "routes": [
          "9",
          "9B",
          "10A",
          "10B",
          "14E",
          "16C",
          "23",
          "23B",
          "42",
          "43B",
          "44",
          "44A",
          "44B",
          "44C",
          "44D",
          "44G",
          "44I",
          "44M",
          "44N",
          "51",
          "51A",
          "51B",
          "51E",
          "53A",
          "54",
          "54A",
          "55",
          "61"
        ]
      }
    },
    {
      "type": "Feature",
      "geometry": {
        "type": "Point",
        "coordinates": [
          74.8418,
          12.8858
        ]
      },
      "properties": {
        "id": "rto",
        "name": "RTO",
        "routes": [
          "29A",
          "54B"
        ]
      }
    },
    {
      "type": "Feature",
      "geometry": {
        "type": "Point",
        "coordinates": [
          74.877,
          12.8263
        ]
      },
      "properties": {
        "id": "ranipura",
        "name": "Ranipura",
        "routes": [
          "44M"
        ]
      }
    },
    {
      "type": "Feature",
      "geometry": {
        "type": "Point",
        "coordinates": [
          74.8395,
          12.8852
        ]
      },
      "properties": {
        "id": "saibeen-complex",
        "name": "Saibeen Complex",
        "routes": [
          "17",
          "17A",
          "17B",
          "19",
          "33",
          "47",
          "47A",
          "47B",
          "47C"
        ]
      }
    },
    {
      "type": "Feature",
      "geometry": {
        "type": "Point",
        "coordinates": [
          74.8963,
          12.8837
        ]
      },
      "properties": {
        "id": "saripalla",
        "name": "Saripalla",
        "routes": [
          "4B",
          "4D"
        ]
      }
    },
    {
      "type": "Feature",
      "geometry": {
        "type": "Point",
        "coordinates": [
          74.8037,
          12.9748
        ]
      },
      "properties": {
        "id": "sasihitlu",
        "name": "Sasihitlu",
        "routes": [
          "2A"
        ]
      }
    },
    {
      "type": "Feature",
      "geometry": {
        "type": "Point",
        "coordinates": [
          74.8692,
          12.8934
        ]
      },
      "properties": {
        "id": "shaktinagar",
        "name": "Shaktinagar",
        "routes": [
          "6A",
          "6B",
          "6C",
          "6D"
        ]
      }
    },
    {
      "type": "Feature",
      "geometry": {
        "type": "Point",
        "coordinates": [
          74.8418,
          12.8858
        ]
      },
      "properties": {
        "id": "shedigudde",
        "name": "Shedigudde",
        "routes": [
          "1C",
          "13B"
        ]
      }
    },
    {
      "type": "Feature",
      "geometry": {
        "type": "Point",
        "coordinates": [
          74.8418,
          12.8858
        ]
      },
      "properties": {
        "id": "shediguri",
        "name": "Shediguri",
        "routes": [
          "15K",
          "31",
          "31C"
        ]
      }
    },
    {
      "type": "Feature",
      "geometry": {
        "type": "Point",
        "coordinates": [
          74.8483,
          13.0335
        ]
      },
      "properties": {
        "id": "shibaroor",
        "name": "Shibaroor",
        "routes": [
          "53B",
          "53D"
        ]
      }
    },
    {
      "type": "Feature",
      "geometry": {
        "type": "Point",
        "coordinates": [
          74.8607,
          12.8746
        ]
      },
      "properties": {
        "id": "shivabagh",
        "name": "Shivabagh",
        "routes": [
          "4B"
        ]
      }
    },
    {
      "type": "Feature",
      "geometry": {
        "type": "Point",
        "coordinates": [
          74.856,
          12.9141
        ]
      },
      "properties": {
        "id": "someshwar",
        "name": "Someshwar",
        "routes": [
          "44A",
          "44J",
          "44K",
          "44P"
        ]
      }
    },
    {
      "type": "Feature",
      "geometry": {
        "type": "Point",
        "coordinates": [
          74.8412,
          13.0252
        ]
      },
      "properties": {
        "id": "soorinje",
        "name": "Soorinje",
        "routes": [
          "53",
          "53A",
          "53C"
        ]
      }
    },
    {
      "type": "Feature",
      "geometry": {
        "type": "Point",
        "coordinates": [
          74.8374,
          12.863
        ]
      },
      "properties": {
        "id": "state-bank",
        "name": "State Bank",
        "routes": [
          "1A",
          "1B",
          "1C",
          "2",
          "2A",
          "2C",
          "2D",
          "3A",
          "3D",
          "4",
          "4A",
          "4B",
          "4C",
          "5",
          "6A",
          "6B",
          "6C",
          "7",
          "9",
          "9A",
          "9B",
          "10A",
          "10B",
          "11A",
          "11B",
          "12A",
          "12B",
          "13",
          "13A",
          "13B",
          "13C",
          "13D",
          "14",
          "14A",
          "14B",
          "16",
          "16A",
          "17",
          "17A",
          "17B",
          "18",
          "19",
          "21",
          "21A",
          "22",
          "22A",
          "23",
          "23B",
          "23C",
          "27",
          "27A",
          "29",
          "29A",
          "30",
          "30B",
          "31",
          "31A",
          "31 B",
          "33",
          "37",
          "41A",
          "42",
          "43B",
          "44",
          "44A",
          "44B",
          "44C",
          "44D",
          "44M",
          "45",
          "45A",
          "45B",
          "45C",
          "45D",
          "45E",
          "45F",
          "45G",
          "45H",
          "47",
          "47A",
          "47B",
          "47C",
          "51",
          "51A",
          "51E",
          "53",
          "54",
          "54A",
          "54B",
          "55",
          "59"
        ]
      }
    },
    {
      "type": "Feature",
      "geometry": {
        "type": "Point",
        "coordinates": [
          74.8211,
          12.8897
        ]
      },
      "properties": {
        "id": "sulthan-bathery",
        "name": "Sulthan Bathery",
        "routes": [
          "16C"
        ]
      }
    },
    {
      "type": "Feature",
      "geometry": {
        "type": "Point",
        "coordinates": [
          74.8211,
          12.8897
        ]
      },
      "properties": {
        "id": "sulthan-battery",
        "name": "Sulthan Battery",
        "routes": [
          "16",
          "16A"
        ]
      }
    },
    {
      "type": "Feature",
      "geometry": {
        "type": "Point",
        "coordinates": [
          74.8004,
          12.9895
        ]
      },
      "properties": {
        "id": "surathkal",
        "name": "Surathkal",
        "routes": [
          "2",
          "2A",
          "2G",
          "3H",
          "13G",
          "13J",
          "13K",
          "15",
          "15A",
          "15B",
          "15C",
          "15D",
          "15F",
          "15G",
          "15H",
          "15I",
          "15J",
          "15L",
          "15N",
          "41A",
          "44I",
          "45",
          "45A",
          "45B",
          "45C",
          "45D",
          "45E",
          "45F",
          "45G",
          "45H",
          "53",
          "53A",
          "53B",
          "53C",
          "53D",
          "59",
          "65"
        ]
      }
    },
    {
      "type": "Feature",
      "geometry": {
        "type": "Point",
        "coordinates": [
          74.8856,
          12.7723
        ]
      },
      "properties": {
        "id": "talapady",
        "name": "Talapady",
        "routes": [
          "3K",
          "42",
          "43B",
          "51T"
        ]
      }
    },
    {
      "type": "Feature",
      "geometry": {
        "type": "Point",
        "coordinates": [
          74.8159,
          12.9399
        ]
      },
      "properties": {
        "id": "tannirbhavi-beach",
        "name": "Tannirbhavi Beach",
        "routes": [
          "1A",
          "2B"
        ]
      }
    },
    {
      "type": "Feature",
      "geometry": {
        "type": "Point",
        "coordinates": [
          74.856,
          12.9141
        ]
      },
      "properties": {
        "id": "tharaithota",
        "name": "Tharaithota",
        "routes": [
          "14F"
        ]
      }
    },
    {
      "type": "Feature",
      "geometry": {
        "type": "Point",
        "coordinates": [
          74.856,
          12.9141
        ]
      },
      "properties": {
        "id": "thaudugoli",
        "name": "Thaudugoli",
        "routes": [
          "54",
          "54A"
        ]
      }
    },
    {
      "type": "Feature",
      "geometry": {
        "type": "Point",
        "coordinates": [
          74.8599,
          12.8189
        ]
      },
      "properties": {
        "id": "thokottu",
        "name": "Thokottu",
        "routes": [
          "3K",
          "42",
          "43B",
          "44",
          "44A",
          "44B",
          "44C",
          "44D",
          "44E",
          "44G",
          "44I",
          "44J",
          "44K",
          "44N",
          "44P",
          "51",
          "51A",
          "51B",
          "51C",
          "51D",
          "51E",
          "51G",
          "51K",
          "51T",
          "54",
          "54A",
          "54B",
          "55"
        ]
      }
    },
    {
      "type": "Feature",
      "geometry": {
        "type": "Point",
        "coordinates": [
          74.8483,
          13.0335
        ]
      },
      "properties": {
        "id": "tibar",
        "name": "Tibar",
        "routes": [
          "53",
          "53A"
        ]
      }
    },
    {
      "type": "Feature",
      "geometry": {
        "type": "Point",
        "coordinates": [
          74.856,
          12.9141
        ]
      },
      "properties": {
        "id": "ulaibettu",
        "name": "Ulaibettu",
        "routes": [
          "3D",
          "3G"
        ]
      }
    },
    {
      "type": "Feature",
      "geometry": {
        "type": "Point",
        "coordinates": [
          74.8407,
          12.8211
        ]
      },
      "properties": {
        "id": "ullal",
        "name": "Ullal",
        "routes": [
          "44A",
          "44C",
          "44D",
          "44J",
          "44P"
        ]
      }
    },
    {
      "type": "Feature",
      "geometry": {
        "type": "Point",
        "coordinates": [
          74.8286,
          12.843
        ]
      },
      "properties": {
        "id": "ullal-launch-jetty",
        "name": "Ullal Launch Jetty",
        "routes": [
          "44C"
        ]
      }
    },
    {
      "type": "Feature",
      "geometry": {
        "type": "Point",
        "coordinates": [
          74.8359,
          12.8997
        ]
      },
      "properties": {
        "id": "urwa-market",
        "name": "Urwa Market",
        "routes": [
          "16B",
          "16C",
          "31",
          "31A",
          "31 B"
        ]
      }
    },
    {
      "type": "Feature",
      "geometry": {
        "type": "Point",
        "coordinates": [
          74.8359,
          12.8997
        ]
      },
      "properties": {
        "id": "urwa-store",
        "name": "Urwa Store",
        "routes": [
          "1",
          "1A",
          "1B",
          "7",
          "13",
          "13A",
          "45",
          "45A",
          "45B",
          "45C",
          "45D",
          "45E",
          "45F",
          "45G",
          "45H",
          "53"
        ]
      }
    },
    {
      "type": "Feature",
      "geometry": {
        "type": "Point",
        "coordinates": [
          74.8359,
          12.8997
        ]
      },
      "properties": {
        "id": "urwa-stores",
        "name": "Urwa Stores",
        "routes": [
          "13A",
          "51B"
        ]
      }
    },
    {
      "type": "Feature",
      "geometry": {
        "type": "Point",
        "coordinates": [
          74.8668,
          12.8607
        ]
      },
      "properties": {
        "id": "valencia",
        "name": "Valencia",
        "routes": [
          "3C",
          "13H",
          "15C",
          "15D",
          "15E",
          "15F",
          "15G",
          "15H",
          "15I",
          "15J",
          "15K",
          "47F",
          "60"
        ]
      }
    },
    {
      "type": "Feature",
      "geometry": {
        "type": "Point",
        "coordinates": [
          74.8974,
          12.9115
        ]
      },
      "properties": {
        "id": "vamanjoor",
        "name": "Vamanjoor",
        "routes": [
          "3A",
          "3B",
          "3D",
          "3H",
          "3K",
          "12A",
          "12B",
          "14E",
          "22",
          "22A"
        ]
      }
    },
    {
      "type": "Feature",
      "geometry": {
        "type": "Point",
        "coordinates": [
          74.8763,
          12.9062
        ]
      },
      "properties": {
        "id": "veeranagara",
        "name": "Veeranagara",
        "routes": [
          "23B",
          "23C"
        ]
      }
    },
    {
      "type": "Feature",
      "geometry": {
        "type": "Point",
        "coordinates": [
          74.8288,
          12.8792
        ]
      },
      "properties": {
        "id": "vishranthi-church-bokkapatna",
        "name": "Vishranthi Church Bokkapatna",
        "routes": [
          "16B"
        ]
      }
    },
    {
      "type": "Feature",
      "geometry": {
        "type": "Point",
        "coordinates": [
          74.8422,
          12.8516
        ]
      },
      "properties": {
        "id": "yemmekere",
        "name": "Yemmekere",
        "routes": [
          "14C",
          "29",
          "29A",
          "44E",
          "44J"
        ]
      }
    },
    {
      "type": "Feature",
      "geometry": {
        "type": "Point",
        "coordinates": [
          74.8596,
          12.8979
        ]
      },
      "properties": {
        "id": "yeyyadi",
        "name": "Yeyyadi",
        "routes": [
          "14A",
          "14B",
          "14C",
          "19"
        ]
      }
    },